,id,station_name,province,lon,lat,elev,SL50 (kPa),rlon,rlat
0,15,CHEMAINUS,BC,-123.742,48.935,75,2.2,-17.245770999404836,4.407282646003369
1,78,SAANICHTON CDA,BC,-123.419,48.6217,61,1.4,-17.148279564593953,4.041211914509844
2,91,SHAWNIGAN LAKE,BC,-123.626,48.6469,159,2.4,-17.269400328837698,4.110152086638713
3,109,VICTORIA GONZALES HTS,BC,-123.325,48.4131,70,1.3,-17.157965052632917,3.823732054743596
4,149,ALERT BAY,BC,-126.93299999999999,50.5833,59,1.6,-18.602265614133806,6.6747472272446595
5,159,CAMPBELL RIVER A,BC,-125.273,49.9519,109,1.6,-17.835905794927697,5.703163327113734
6,170,CHATHAM POINT,BC,-125.446,50.3332,23,2.1,-17.80527022983485,6.099084371860609
7,174,COMOX A,BC,-124.9,49.7167,26,1.6,-17.69177543345937,5.398827057118161
8,214,NANAIMO A,BC,-123.87,49.0544,28,2.5,-17.285246670498605,4.547856150701866
9,228,PORT HARDY A,BC,-127.366,50.6803,22,0.7,-18.822471420345344,6.867169200978581
10,236,QUALICUM R FISH RESEARCH,BC,-124.617,49.3938,8,1.2,-17.630534663570668,5.032427849855934
11,267,BULL HARBOUR,BC,-127.95,50.9167,14,0.9,-19.07644773785695,7.225774117220209
12,270,CAPE SCOTT,BC,-128.42700000000002,50.7822,72,0.4,-19.408809155479275,7.217536626163485
13,277,ESTEVAN POINT,BC,-126.54299999999999,49.3833,6,0.9,-18.811593513119927,5.466629246781768
14,319,TOFINO A,BC,-125.773,49.0822,24,1.1,-18.449748667971477,5.0044347021713405
15,354,GIBSONS GOWER POINT,BC,-123.541,49.3856,34,0.9,-16.97143584939462,4.788781407389454
16,366,MERRY ISLAND LIGHTSTATION,BC,-123.913,49.4675,7,0.5,-17.173074384200916,4.946532338915584
17,393,SQUAMISH UPPER,BC,-123.281,49.8958,46,4.6,-16.64324273203796,5.2151149274009825
18,402,WHISTLER,BC,-122.955,50.1289,658,5.4,-16.368037148016132,5.367198301998756
19,409,CAPE ST JAMES,BC,-131.017,51.9333,92,0.8,-20.436114299632873,8.9221102400567
20,417,LANGARA,BC,-133.058,54.2552,43,1.3,-20.54536787529786,11.545163694436308
21,432,SANDSPIT A,BC,-131.813,53.2539,6,1.3,-20.314453931732185,10.323304131822256
22,465,ETHELDA BAY,BC,-129.683,53.05,10,1.8,-19.221120663833677,9.606712845887811
23,469,GREEN ISLAND,BC,-130.708,54.5686,12,0.7,-19.14849221056054,11.239871559683275
24,489,MCINNES ISLAND,BC,-128.719,52.2617,26,1.1,-18.9954872190085,8.650836671452103
25,500,PRINCE RUPERT A,BC,-130.445,54.2925,35,1.7,-19.12359427311639,10.925168419012316
26,517,STEWART A,BC,-129.985,55.9361,7,9.0,-18.18701005126701,12.314069788778712
27,522,TERRACE A,BC,-128.577,54.4664,217,5.5,-18.038806278710556,10.64544044520589
28,568,NASS CAMP,BC,-129.03,55.2375,195,5.8,-17.971764008077084,11.456778063183705
29,575,SMITHERS A,BC,-127.18299999999999,54.8247,522,2.7,-17.140960439352252,10.665533425795687
30,724,PRINCE GEORGE A,BC,-122.679,53.8908,691,2.9,-14.978951097074027,8.871679997996239
31,737,QUESNEL A,BC,-122.51,53.0261,545,3.5,-15.164130981795742,8.020634284705773
32,747,SPOKIN LAKE 4E,BC,-121.686,52.1836,1033,3.2,-14.953217742857733,7.063303973997932
33,759,WILLIAMS LAKE A,BC,-122.054,52.1831,940,3.2,-15.169367061339733,7.133331673139345
34,782,ABBOTSFORD A,BC,-122.36,49.0253,59,1.5,-16.35606704872496,4.198174141908334
35,789,AGASSIZ CDA,BC,-121.76,49.2431,15,1.7,-15.91382619343588,4.282087444883862
36,1095,HOPE A,BC,-121.49799999999999,49.3683,39,3.1,-15.712158813189633,4.348558395632354
37,1103,HOPE SLIDE,BC,-121.23299999999999,49.2667,685,5.0,-15.578263258483593,4.1991101393692425
38,1118,LYTTON,BC,-121.583,50.2333,229,2.0,-15.497821704493647,5.1885658794574345
39,1147,HEDLEY,BC,-120.07700000000001,49.3572,517,1.4,-14.8297517816315,4.062019040754055
40,1157,KELOWNA A,BC,-119.37799999999999,49.9561,430,1.4,-14.223333606531087,4.506705494696642
41,1217,PENTICTON A,BC,-119.602,49.4631,344,0.8,-14.502483686793461,4.074800059239958
42,1220,PRINCETON A,BC,-120.51299999999999,49.4678,702,2.6,-15.069322822765542,4.250712703917452
43,1237,VERNON NORTH,BC,-119.271,50.3443,538,1.7,-14.047864832441528,4.859998740791233
44,1243,WINFIELD,BC,-119.416,50.0366,506,1.4,-14.224088312309972,4.590826836110048
45,1278,CASTLEGAR A,BC,-117.632,49.2964,496,2.7,-13.311122271809033,3.5652891404836695
46,1287,CRESTON,BC,-116.51799999999999,49.0971,610,1.9,-12.656336194902284,3.187961984628174
47,1318,NEW DENVER,BC,-117.37,49.9958,568,2.7,-12.965453311805444,4.196953729114685
48,1343,NELSON RIXEN CREEK,BC,-117.399,49.5123,760,3.8,-13.108365117454234,3.7345715322890913
49,1355,CRANBROOK A,BC,-115.78200000000001,49.6122,940,2.0,-12.06538588634602,3.5715594149337595
50,1392,SPARWOOD,BC,-114.883,49.7453,1138,1.9,-11.467506817735874,3.565855703432369
51,1418,BLUE RIVER A,BC,-119.29,52.129,690,5.7,-13.555416375438215,6.576161870116752
52,1442,CRISS CREEK,BC,-120.728,51.0297,1122,2.1,-14.73613903296527,5.783119687623349
53,1443,DARFIELD,BC,-120.18299999999999,51.2918,466,1.5,-14.330120957742263,5.932724915674236
54,1461,KAMLOOPS A,BC,-120.44200000000001,50.7022,345,1.5,-14.660457567490104,5.416834683190573
55,1497,100 MILE HOUSE 6NE,BC,-121.21700000000001,51.6814,928,2.6,-14.83152150856505,6.4965383453506425
56,1516,SILVER CREEK,BC,-119.35,50.5452,419,2.2,-14.03967533064155,5.066941291229419
57,1542,VIDETTE LAKE SHARPE LAKE,BC,-120.839,51.3265,1083,1.8,-14.713699399972128,6.087149700909907
58,1566,GLACIER NP ROGERS PASS,BC,-117.51700000000001,51.3017,1330,9.9,-12.71709709241998,5.482574779413113
59,1568,GOLDEN A,BC,-116.98200000000001,51.2992,785,2.9,-12.39295400636217,5.394415140675882
60,1579,REVELSTOKE AIRPORT RD,BC,-118.166,50.9533,450,5.7,-13.203936242889501,5.253797842772089
61,1597,GLACIER NP MT FIDELITY,BC,-117.70100000000001,51.2382,1890,20.4,-12.84537403334695,5.45128229469057
62,1615,CHETWYND A,BC,-121.62700000000001,55.6872,610,2.1,-13.816510353920053,10.382100207627825
63,1630,FORT ST JOHN A,BC,-120.74,56.2381,695,3.6,-13.163717285063106,10.753806257076697
64,1634,GERMANSEN LANDING,BC,-124.70100000000001,55.7855,766,3.5,-15.445471313000713,11.047399217578207
65,1683,DEASE LAKE,BC,-130.011,58.4283,807,3.1,-17.142096595521583,14.58973720034851
66,1686,FORT NELSON A,BC,-122.59700000000001,58.8364,382,2.7,-13.294599528109782,13.53351926237463
67,1769,BURWASH A,YT,-139.05,61.3667,806,1.5,-19.882004589804254,19.306314193603082
68,1780,DAWSON,YT,-139.433,64.05,320,3.3,-18.5250048011659,21.676001032265592
69,1782,DAWSON A,YT,-139.128,64.0431,370,2.3,-18.407519961095826,21.598938834154087
70,1796,FARO A,YT,-133.373,62.2069,716,1.8,-16.97524634774574,18.714427641818464
71,1806,HAINES JUNCTION,YT,-137.58,60.7725,595,2.0,-19.560582555173415,18.4310010060796
72,1829,MAYO A,YT,-135.86700000000002,63.6167,504,2.8,-17.3192127506522,20.495251114049235
73,1879,TESLIN A,YT,-132.736,60.1741,705,3.2,-17.660877209858345,16.76506763477859
74,1887,WATSON LAKE A,YT,-128.822,60.1165,687,3.3,-15.851020784876589,15.880923220563833
75,1893,WHITEHORSE A,YT,-135.069,60.7095,706,2.0,-18.468791200743226,17.7729222850007
76,1912,CAPE PARRY A,NT,-124.71700000000001,70.1667,87,1.1,-9.983429469768042,24.460936365558343
77,1944,FORT RELIANCE,NT,-109.167,62.7167,166,2.8,-5.7587229165762075,15.66795069496372
78,1947,FORT RESOLUTION A,NT,-113.69,61.1808,160,2.9,-8.223670798368683,14.565388662023608
79,1951,FORT SIMPSON A,NT,-121.23700000000001,61.7603,169,2.7,-11.662896594650553,16.085824204153216
80,1959,FORT SMITH A,NT,-111.962,60.0203,205,2.4,-7.616430689969889,13.254432412961972
81,1968,HAY RIVER A,NT,-115.78299999999999,60.8397,165,3.0,-9.324605930233329,14.468960203336742
82,1979,INUVIK A,NT,-133.483,68.3042,68,3.0,-13.935204799901314,24.11612349673207
83,1994,NORMAN WELLS A,NT,-126.8,65.2825,73,3.8,-12.797273633836445,20.25328633221057
84,2027,TUKTOYAKTUK,NT,-133.0,69.45,18,1.8,-13.16333698797708,25.03831355202299
85,2029,TUKTOYAKTUK A,NT,-133.026,69.4333,4,2.1,-13.181003907270492,25.028017177100875
86,2042,YELLOWKNIFE A,NT,-114.44,62.4628,206,1.9,-8.283411299371597,15.8941364226464
87,2047,YOHIN,NT,-123.742,61.2419,204,2.5,-13.014781168462859,15.991103468858041
88,2064,BAKER LAKE A,NU,-96.0778,64.2989,19,3.2,0.41775555963923183,16.80137872475479
89,2072,CHESTERFIELD,NU,-90.7167,63.3333,6,3.2,2.928277120662789,15.951712281201985
90,2077,CLINTON POINT,NU,-120.8,69.5833,101,1.6,-8.826311309401945,23.44235374761187
91,2078,CONTWOYTO LAKE,NU,-110.367,65.4833,451,4.0,-5.8054537397209645,18.483281173616597
92,2079,COPPERMINE,NU,-115.117,67.8333,9,2.6,-7.228312890761027,21.17831673796546
93,2080,KUGLUKTUK A,NU,-115.14399999999999,67.8167,23,2.9,-7.243285175467381,21.164734286306757
94,2086,CORAL HARBOUR A,NU,-83.3594,64.1933,62,2.7,6.170803303022934,17.235601653792568
95,2091,ENNADAI LAKE,NU,-100.9,61.1333,325,2.8,-1.9366766682370051,13.681900442512509
96,2110,PELLY BAY,NU,-89.7167,68.4333,326,3.3,2.8624662073599754,21.067501083406018
97,2117,RANKIN INLET A,NU,-92.1167,62.8167,32,2.4,2.3116704332428544,15.389341884371548
98,2141,ALERT,NU,-62.2806,82.5178,30,2.3,5.2749625457498235,36.222662646628834
99,2155,FOX FIVE,NU,-63.7889,67.5356,584,6.3,13.129046420759014,22.868701178463567
100,2162,BYRON BAY A,NU,-109.06700000000001,68.75,92,1.2,-4.674782885449549,21.61343274960767
101,2163,CAMBRIDGE BAY A,NU,-105.13799999999999,69.1081,31,1.6,-3.1159972251081784,21.771353847100382
102,2173,CAPE DYER A,NU,-61.6167,66.5833,393,8.4,14.412454916130438,22.39945260697579
103,2175,CAPE HOOPER,NU,-66.8153,68.4725,390,5.2,11.583229823915062,23.241209751869288
104,2179,CLYDE A,NU,-68.5167,70.4861,26,4.8,10.111462339176834,24.854671892755793
105,2186,DEWAR LAKES,NU,-71.1667,68.65,527,3.9,9.909844813640515,22.807411148594248
106,2193,EUREKA A,NU,-85.9333,79.9833,10,0.9,2.272431308433523,32.64541886648805
107,2200,GLADMAN POINT A,NU,-97.8,68.6667,14,1.2,-0.31208441667822434,21.168306359986623
108,2204,HALL BEACH A,NU,-81.2425,68.7758,9,2.2,6.082122147370087,21.893848234284437
109,2216,IQALUIT A,NU,-68.55,63.75,34,2.3,12.846172943570908,18.615143558311996
110,2221,ISACHSEN,NU,-103.53299999999999,78.7833,25,1.6,-1.4849252212430886,31.345755932126362
111,2230,LONGSTAFF BLUFF,NU,-75.1408,68.8986,161,3.4,8.34718788299684,22.577846279580037
112,2231,MACKAR INLET,NU,-85.6667,68.3,395,2.8,4.467676573336247,21.12615228933823
113,2263,RESOLUTE CARS,NU,-94.9694,74.7169,68,1.4,0.6018099385145664,27.224762925109236
114,2295,MOULD BAY A,NT,-119.333,76.2333,12,1.2,-5.969241673105273,29.59681105435813
115,2299,SACHS HARBOUR A,NT,-125.26700000000001,72.0,86,1.1,-9.3888415938028,26.222748150746305
116,2332,BRIGHTVIEW,AB,-113.71700000000001,52.9833,815,1.8,-10.039006639652118,6.564121184996623
117,2363,CORONATION A,AB,-111.45,52.0667,791,1.8,-8.863542897471344,5.391313639347458
118,2385,EDMONTON CITY CENTRE A,AB,-113.51799999999999,53.5733,671,1.7,-9.795709266970313,7.1153958025878365
119,2387,EDMONTON NAMAO A,AB,-113.46700000000001,53.6667,688,1.7,-9.74605025536421,7.20031278290669
120,2394,EDMONTON STONY PLAIN,AB,-114.10799999999999,53.5475,766,1.4,-10.146227458310676,7.165517526809998
121,2468,LLOYDMINSTER A,AB,-110.072,53.3092,668,1.2,-7.816700497910845,6.467027949933973
122,2501,PARADISE VALLEY,AB,-110.35,53.1167,658,1.2,-8.01463445560685,6.305541257003819
123,2518,ROCKY MTN HOUSE,AB,-114.917,52.3833,1015,2.5,-10.886185966541683,6.139577167823878
124,2567,UNCAS,AB,-113.03299999999999,53.5,750,2.0,-9.527016403047012,6.98369096721194
125,2570,VEGREVILLE CDA,AB,-112.03299999999999,53.4833,636,1.4,-8.94303792876865,6.849001617251035
126,2572,VERMILION A,AB,-110.833,53.35,619,2.1,-8.260182462283357,6.5856745408813815
127,2719,LACOMBE CDA,AB,-113.75,52.4667,847,2.0,-10.169656485245808,6.063709187450945
128,2731,MARKERVILLE,AB,-114.133,52.1167,914,2.1,-10.47561217851205,5.772569187380431
129,2757,RED DEER A,AB,-113.89299999999999,52.1786,905,1.9,-10.317618290854872,5.801064729915265
130,2883,COCHRANE,AB,-114.434,51.1969,1332,1.6,-10.861806565950413,4.916387552544458
131,2938,LETHBRIDGE A,AB,-112.8,49.6303,929,0.9,-10.173529005346774,3.16518878430455
132,2943,LETHBRIDGE CDA,AB,-112.76700000000001,49.695,910,1.0,-10.139555795803165,3.2242799425895714
133,2955,MEDICINE HAT A,AB,-110.721,50.0189,717,1.1,-8.78098449257167,3.294490341736107
134,3017,SUFFIELD A,AB,-111.18299999999999,50.2667,770,1.2,-9.028653520187895,3.5910565071829694
135,3049,OKOTOKS,AB,-113.961,50.7292,1081,1.1,-10.672781136320898,4.394858083561403
136,3096,BANFF,AB,-115.56700000000001,51.1833,1384,3.2,-11.558827532360517,5.0655475865321336
137,3153,JASPER,AB,-118.06700000000001,52.8833,1062,2.8,-12.626067082342265,7.097323706908893
138,3159,KANANASKIS,AB,-115.035,51.0275,1391,2.3,-11.26905824222256,4.8363904848695105
139,3317,EDSON A,AB,-116.46700000000001,53.5833,927,3.0,-11.51139931173636,7.52710801321648
140,3336,FORT MCMURRAY A,AB,-111.21700000000001,56.65,369,1.8,-7.876901137946268,9.871182472145804
141,3427,RONAN,AB,-115.25,53.8833,732,2.6,-10.733684917502696,7.645226302241052
142,3441,SHINING BANK,AB,-115.96700000000001,53.85,829,2.3,-11.156081337022442,7.7132460076581975
143,3450,SLAVE LAKE A,AB,-114.78299999999999,55.3,581,2.8,-10.137658918282566,8.961434607356354
144,3474,WHITECOURT,AB,-115.667,54.1333,741,3.0,-10.914612003503843,7.945925692469452
145,3476,WHITECOURT A,AB,-115.787,54.1439,782,2.8,-10.980979499107141,7.97302083337573
146,3508,BEAVERLODGE CDA,AB,-119.4,55.2,745,2.9,-12.7402776438216,9.539950230363896
147,3554,FAIRVIEW,AB,-118.383,56.0667,670,2.6,-11.935249413927469,10.212029191845676
148,3569,FORT VERMILION CDA,AB,-116.03299999999999,58.3833,279,2.3,-10.070287881930062,12.11878653105197
149,3584,GRANDE PRAIRIE A,AB,-118.885,55.1797,669,2.7,-12.46008114715757,9.437642625030247
150,3595,HIGH LEVEL A,AB,-117.165,58.6214,338,2.6,-10.594224739549533,12.498830656358052
151,3651,PEACE RIVER A,AB,-117.447,56.2269,571,1.9,-11.381198804475845,10.226946829363605
152,3742,COLD LAKE A,AB,-110.28299999999999,54.4167,541,1.7,-7.751283756222322,7.579601901793152
153,3766,BROADVIEW,SK,-102.571,50.3681,600,1.2,-3.5550168868492085,2.995535908365118
154,3808,ESTEVAN A,SK,-102.96700000000001,49.2167,580,1.5,-3.895667948011195,1.8662740844535828
155,3814,FENWOOD,SK,-103.06700000000001,51.15,625,1.6,-3.8097930656591097,3.7987314058440207
156,3863,LEROY,SK,-104.633,52.0,535,2.1,-4.7067675930473545,4.731195483550668
157,3884,MOOSE JAW A,SK,-105.56700000000001,50.3333,577,1.0,-5.464582646908156,3.1345694278645513
158,3928,REGINA CDA,SK,-104.56700000000001,50.4,573,1.2,-4.82227641711188,3.1348148797529256
159,3977,WEYBURN,SK,-103.833,49.65,570,2.0,-4.421666135144434,2.3444152303763364
160,3979,WHITEWOOD,SK,-102.26700000000001,50.35,598,2.7,-3.362546462664063,2.9639579026062517
161,3985,WYNYARD,SK,-104.2,51.7667,561,0.8,-4.46219952097385,4.473443711760957
162,3992,YORKTON A,SK,-102.46700000000001,51.2667,498,2.5,-3.42540834014595,3.887198018830976
163,4012,BEECHY,SK,-107.311,50.832,660,1.7,-6.505263198283556,3.7636991911369555
164,4086,ROCK POINT,SK,-107.26299999999999,51.1539,725,0.7,-6.432663915289442,4.078796581815819
165,4101,SWIFT CURRENT (HYBRID),SK,-107.708,50.28335,821,1.1,-6.82970579631831,3.2540343879709486
166,4162,BICKLEIGH,SK,-108.40700000000001,51.2944,676,1.0,-7.124496208245403,4.317492293513623
167,4163,BIGGAR,SK,-107.98299999999999,52.0667,671,1.3,-6.752163373239996,5.044025402318534
168,4164,BUTTE ST PIERRE,SK,-109.2,53.45,572,1.2,-7.277127875163325,6.521524327565458
169,4184,KINDERSLEY A,SK,-109.18299999999999,51.5167,694,1.1,-7.570753106418941,4.610409614867476
170,4187,KINDERSLEY KY,SK,-109.167,51.4667,683,1.8,-7.568705942337367,4.559467704196255
171,4200,NORTH BATTLEFORD A,SK,-108.256,52.7719,548,2.0,-6.816518407766225,5.765774172302074
172,4240,CAMEO,SK,-106.55,53.2833,488,1.5,-5.725413134004645,6.135210259560193
173,4285,PRINCE ALBERT A,SK,-105.667,53.2167,428,1.4,-5.205649220236125,6.007061876745139
174,4305,SASKATOON SRC,SK,-106.6,52.15,497,0.9,-5.895926545544545,5.014279146457886
175,4332,BUFFALO NARROWS A,SK,-108.43299999999999,55.8333,434,1.7,-6.468147253388817,8.809364042689996
176,4337,CIGAR LAKE,SK,-104.48299999999999,58.0833,467,2.8,-4.019039624140345,10.776852701726542
177,4346,CREE LAKE,SK,-107.133,57.35,495,1.7,-5.534482218850916,10.211000872120755
178,4363,KEY LAKE,SK,-105.617,57.25,509,2.4,-4.721178101861767,10.011841930809885
179,4369,LA RONGE A,SK,-105.26700000000001,55.15,379,2.2,-4.758247218746956,7.903160812653753
180,4378,MEADOW LAKE A,SK,-108.51700000000001,54.1333,481,1.2,-6.770535142688353,7.135252540529704
181,4396,STONY RAPIDS A,SK,-105.833,59.25,245,3.0,-4.604034071073405,12.01176366560062
182,4397,URANIUM CITY A,SK,-108.48299999999999,59.5667,318,2.6,-5.928649267233507,12.505036006001426
183,4418,NIPAWIN A,SK,-104.0,53.3333,372,1.7,-4.196613718484254,6.022339598671445
184,4443,HUDSON BAY,SK,-102.4,52.8667,372,2.9,-3.271726726194787,5.480382492219133
185,4457,PELLY 2,SK,-101.9,51.7333,499,1.8,-3.0410843278094837,4.329181842759334
186,4475,BRANDON A,MB,-99.9519,49.91,409,2.2,-1.9022360052764455,2.4461289022730366
187,4531,PORTAGE SOUTHPORT A,MB,-98.2667,49.9,270,2.1,-0.816592826955396,2.406655175540253
188,4587,ROBLIN FRIESEN 3 NORTHWEST,MB,-101.4,51.2667,556,1.7,-2.7576263152830216,3.8447714814497687
189,4588,RIVERS PETTAPIECE,MB,-100.179,50.1082,488,3.4,-2.0403860544524055,2.649934333757479
190,4644,MARQUETTE,MB,-97.8071,50.0134,244,2.3,-0.5191396988927048,2.5160958184100637
191,4648,MIAMI THIESSEN,MB,-98.25,49.45,297,1.6,-0.8130760493526549,1.956539149126066
192,4651,MORDEN CDA,MB,-98.0833,49.1833,298,2.2,-0.7083728658870007,1.6882373082187547
193,4664,OAKBANK,MB,-96.85,49.9333,246,2.4,0.0966389221322516,2.4333932656282005
194,4674,PILOT MOUND (AUT),MB,-98.9049,49.191,470,2.1,-1.2453482523306831,1.7062631912498636
195,4787,GIMLI,MB,-97.0167,50.6333,223,1.5,-0.010608356324525762,3.133301139837197
196,4802,HODGSON 2,MB,-97.4651,51.1861,232,4.5,-0.29212404081842136,3.686974162525788
197,4843,DAUPHIN A,MB,-100.05,51.1,304,1.5,-1.9186062210436028,3.637650982133446
198,4859,GILBERT PLAINS,MB,-100.46700000000001,51.1,404,2.2,-2.1807652710283705,3.6486471044256565
199,4939,FLIN FLON A,MB,-101.68299999999999,54.6833,304,1.9,-2.7271258170741155,7.265476171623048
200,4947,THE PAS A,MB,-101.1,53.9667,270,2.6,-2.4262533068727663,6.530706804739108
201,4957,CHURCHILL A,MB,-94.0664,58.7392,29,2.6,1.5517817622508403,11.268490682622877
202,4970,GILLAM A,MB,-94.7106,56.3575,145,3.0,1.2834890209619778,8.876406118523924
203,4976,ISLAND LAKE A,MB,-94.65,53.85,236,2.6,1.3946292957132782,6.37108696084185
204,4988,LYNN LAKE A,MB,-101.07600000000001,56.8639,357,2.6,-2.2572180214763757,9.423099719603844
205,5018,THOMPSON A,MB,-97.8625,55.8033,224,2.4,-0.4898819825218631,8.306018505604065
206,5029,NORWAY HOUSE A,MB,-97.85,53.95,224,2.6,-0.5033945328851623,6.452753004204012
207,5034,BIG TROUT LAKE,ON,-89.8667,53.8333,224,4.2,4.229992367547862,6.527474346337769
208,5044,LANSDOWNE HOUSE,ON,-87.8833,52.2333,254,4.1,5.590602250568889,5.061316046013959
209,5053,PICKLE LAKE A,ON,-90.2142,51.4464,386,1.8,4.234191060809857,4.131289646967927
210,5060,RED LAKE A,ON,-93.7931,51.0669,386,3.3,2.018623133323337,3.6085516827729736
211,5069,ATIKOKAN,ON,-91.6167,48.75,395,2.9,3.547520198421301,1.3728805146422267
212,5099,DRYDEN A,ON,-92.75,49.8333,413,1.9,2.742262906325916,2.408289044403697
213,5110,KENORA A,ON,-94.3653,49.7903,410,3.9,1.7019727769211224,2.3191516259454263
214,5123,SIOUX LOOKOUT A,ON,-91.9,50.1167,383,3.4,3.2714077284853,2.724053173483273
215,5138,ARMSTRONG (AUT),ON,-88.9053,50.2936,322,4.8,5.168523459661336,3.0628319237385395
216,5157,GERALDTON A,ON,-86.9306,49.7828,348,2.9,6.489334819136607,2.703334463357099
217,5224,THUNDER BAY A,ON,-89.3272,48.3694,199,3.5,5.08967868562008,1.1206948848156557
218,5239,WHITEFISH LAKE,ON,-89.9167,48.2833,399,3.8,4.707577833482668,0.9978671020460085
219,5283,SAULT STE MARIE A,ON,-84.5094,46.4833,192,4.3,8.56463998274487,-0.3282026503152139
220,5295,WHITE RIVER,ON,-85.2833,48.6,379,3.1,7.721167762872969,1.6822521533276675
221,5296,WAWA A,ON,-84.7833,47.9667,287,5.2,8.146944438375767,1.1072814606393633
222,5304,CHAPLEAU A,ON,-83.3467,47.82,448,3.1,9.121374066660865,1.1215982693691606
223,5329,SUDBURY A,ON,-80.7978,46.6256,348,3.7,11.04782465123829,0.27785930544065024
224,5346,EARLTON A,ON,-79.85,47.7,243,5.2,11.450362801068342,1.464268420428553
225,5358,KAPUSKASING CDA,ON,-82.4333,49.4,218,3.0,9.431461031270734,2.7844182733983796
226,5359,KAPUSKASING A,ON,-82.4675,49.4139,226,3.8,9.406987093709729,2.7939506024780143
227,5375,MOOSONEE UA,ON,-80.65,51.2667,10,3.5,10.181446848171866,4.838614639714897
228,5393,TIMMINS VICTOR POWER A,ON,-81.3767,48.5697,295,4.3,10.272256140147682,2.1028662985791216
229,5408,DWIGHT,ON,-78.9,45.3833,404,4.1,12.604555155685231,-0.6480473584073168
230,5418,NORTH BAY A,ON,-79.4228,46.3636,370,3.8,12.02855117692835,0.2247059616752298
231,5431,GORE BAY A,ON,-82.5667,45.8833,194,3.7,9.992710779507949,-0.6883970505338951
232,5515,HARTINGTON IHD,ON,-76.6903,44.4281,160,2.4,14.354715693013972,-1.1950455367128394
233,5524,KINGSTON A,ON,-76.5967,44.2186,92,2.1,14.473210899310928,-1.3803565049833204
234,5570,OTTAWA CDA,ON,-75.7167,45.3833,79,2.0,14.770203286375427,-0.0926557441963778
235,5595,PETAWAWA A,ON,-77.3167,45.95,130,3.2,13.543748046258958,0.16636607784747412
236,5646,ALLISTON NELSON,ON,-79.8722,44.1514,221,1.8,12.2065379573681,-2.0028898354841
237,5690,COOKSTOWN,ON,-79.6947,44.2067,244,1.6,12.318754222071837,-1.9211289341184725
238,5694,DUNCHURCH,ON,-79.8833,45.6167,268,3.4,11.880619147076752,-0.5742533922365206
239,5735,MUSKOKA A,ON,-79.3,44.9667,282,3.9,12.424309244301325,-1.1177117079756498
240,5759,POWASSAN,ON,-79.25,46.1167,274,3.1,12.200271604969695,0.0108004267438218
241,5761,PRICEVILLE,ON,-80.6378,44.2036,472,2.9,11.658569176059126,-2.068590235243496
242,5773,SHANTY BAY,ON,-79.6328,44.3995,250,3.4,12.319592020167152,-1.7233069520001558
243,5808,WIARTON A,ON,-81.1072,44.7458,222,3.8,11.219407227076683,-1.6065279350677362
244,5880,SARNIA AIRPORT,ON,-82.3047,42.9922,181,1.5,10.7134921602455,-3.4945859613826147
245,5921,DELHI CDA,ON,-80.55,42.8667,232,1.6,11.999925006386508,-3.3628448895127754
246,5996,ST CATHARINES A,ON,-79.1667,43.2,98,0.9,12.915619247015943,-2.817509219258394
247,6006,SIMCOE,ON,-80.2667,42.85,240,1.7,12.206799132067156,-3.335374154899144
248,6032,WATERFORD,ON,-80.2333,42.8833,222,1.2,12.223659162002475,-3.2976268496041468
249,6037,WINDSOR RIVERSIDE,ON,-82.9333,42.3333,188,1.2,10.379271031382924,-4.227125340313413
250,6038,WINDSOR A,ON,-82.9556,42.2756,190,0.9,10.373390404111557,-4.286848910227873
251,6077,DORCHESTER,ON,-81.0328,43.001999999999995,271,1.5,11.625518178228763,-3.3033197995587598
252,6137,MOUNT FOREST,ON,-80.75,43.9833,414,2.1,11.625346633334846,-2.300804570575231
253,6169,WATERLOO WELLINGTON A,ON,-80.3833,43.45,317,1.8,11.996249233882299,-2.767016061611644
254,6192,BELLEVILLE,ON,-77.3947,44.1506,76,1.8,13.936456970299941,-1.5905322191931184
255,6273,HAMILTON A,ON,-79.9342,43.1717,238,1.9,12.37546741076384,-2.9689855230488806
256,6278,HAMILTON RBG,ON,-79.8833,43.2833,102,1.4,12.387474338992014,-2.851997203751697
257,6407,RICHMOND HILL,ON,-79.4478,43.8772,240,1.9,12.564815949223863,-2.2032653790882666
258,6413,SANDHILL,ON,-79.8081,43.8081,270,1.5,12.32637283896129,-2.327916851748337
259,6417,SMITHFIELD CDA,ON,-77.6667,44.0833,119,1.2,13.763648867181702,-1.7037724583668714
260,6436,TORONTO,ON,-79.4,43.6667,112,1.3,12.645432657636889,-2.4007826199030635
261,6479,TORONTO ISLAND A,ON,-79.395,43.6286,76,1.0,12.657472533066505,-2.4371144169958994
262,6520,TRENTON A,ON,-77.5333,44.1167,86,1.4,13.848380542642577,-1.647919910661428
263,6551,TORONTO BUTTONVILLE A,ON,-79.37,43.8622,198,1.5,12.62287891217746,-2.2053809803339703
264,6558,TORONTO NORTH YORK,ON,-79.4678,43.78,187,1.6,12.57237144415825,-2.3012399580428746
265,6577,HALIBURTON 3,ON,-78.5311,45.0322,330,2.7,12.938661086656456,-0.929498972966488
266,6596,PETERBOROUGH A,ON,-78.3667,44.2333,191,2.4,13.239909508912735,-1.6786484471005159
267,6634,DESCHAMBAULT,QC,-71.9167,46.6667,15,4.3,16.922755381469877,1.9009426839342536
268,6667,QUEBEC/JEAN LESAGE INTL A,QC,-71.3833,46.8,74,5.6,17.22771444423007,2.142892402870948
269,6669,RIGAUD,QC,-74.3667,45.5,46,2.5,15.648523738310713,0.2806495088143387
270,6674,ST ALBAN,QC,-72.0833,46.7167,76,4.9,16.798519081378075,1.912824438817077
271,6675,ST ALEXIS DES MONTS,QC,-73.15,46.5333,183,3.6,16.15629574000493,1.5150610464679561
272,6676,STE ANNE DE LA PERADE,QC,-72.2333,46.5833,16,3.5,16.741931706325044,1.7540822281724946
273,6677,ST AUGUSTIN,QC,-71.5,46.7333,58,6.5,17.173129500136174,2.054217978278324
274,6678,STE BEATRIX,QC,-73.6,46.2,198,4.3,15.95810005194841,1.1048802078623199
275,6681,ST CHARLES DE MANDEVILLE,QC,-73.35,46.35,168,4.1,16.07911852243818,1.29909797368146
276,6685,ST COME,QC,-73.75,46.2833,244,4.2,15.834532095958147,1.1542596729610621
277,6699,ST NARCISSE,QC,-72.4333,46.5333,46,4.4,16.626426689197242,1.664176253985097
278,6703,STE THERESE OUEST,QC,-73.8833,45.65,61,2.3,15.929713258832273,0.521333283639665
279,6726,TROIS RIVIERES AQUEDUC,QC,-72.6167,46.3833,55,3.3,16.55193535398155,1.4827451771107225
280,6729,LAC AUX SABLES,QC,-72.4,46.8667,160,4.6,16.545808996887292,1.9884978888085978
281,6744,BEAUSEJOUR,QC,-71.1667,46.6667,107,4.5,17.411163562539105,2.0641528045347988
282,6750,BONSECOURS,QC,-72.2667,45.4,297,3.7,17.08527176163669,0.6214263288690471
283,6753,BROME,QC,-72.5667,45.1833,206,2.8,16.950859185149188,0.35043721364910185
284,6755,BROMPTONVILLE,QC,-71.95,45.4833,130,2.2,17.270669708561627,0.7695743040876517
285,6765,COATICOOK,QC,-71.8,45.15,259,2.8,17.47520195436037,0.4860499102898444
286,6774,DRUMMONDVILLE,QC,-72.4833,45.8833,82,2.7,16.79264234742965,1.0348232563982545
287,6786,FLEURY,QC,-73.0,45.8,30,2.6,16.47479579678509,0.8463890909946689
288,6787,FORTIERVILLE,QC,-72.05,46.4833,53,4.1,16.892890608074847,1.6981108675439935
289,6794,GEORGEVILLE,QC,-72.2333,45.1333,267,3.4,17.189960041690064,0.3750065977850023
290,6795,GRANBY,QC,-72.7167,45.3833,175,2.4,16.78949405383804,0.5088716677241474
291,6800,HEMMINGFORD FOUR WINDS,QC,-73.7167,45.0667,61,3.5,16.211153361252567,-0.002819591108613995
292,6802,HUNTINGDON,QC,-74.1667,45.05,49,1.9,15.91164378309388,-0.11059958944123897
293,6804,IBERVILLE,QC,-73.25,45.3333,30,2.0,16.447024680651992,0.34872560816845866
294,6823,LAUZON,QC,-71.1,46.8167,69,7.1,17.406153681880436,2.220882571941183
295,6826,LENNOXVILLE,QC,-71.8236,45.3689,181,2.8,17.390734475406397,0.6886805319462729
296,6827,LINGWICK,QC,-71.3667,45.6333,267,3.7,17.61091405605013,1.0408049695193322
297,6829,MAGOG,QC,-72.1167,45.2667,274,2.3,17.226791433609083,0.5272872692490097
298,6839,MILAN,QC,-71.1167,45.5833,482,4.2,17.79263385317223,1.0494863716117762
299,6845,MONTREAL/PIERRE ELLIOTT TRUDEAU INTL A,QC,-73.75,45.4667,36,2.5,16.072237754624673,0.3730154780297401
300,6852,MONTREAL MCGILL,QC,-73.5833,45.5,57,3.8,16.174297228821235,0.43899501354061177
301,6856,NICOLET,QC,-72.6167,46.2,30,3.3,16.607760775956216,1.3081477460879134
302,6859,NOTRE DAME DES BOIS,QC,-71.0833,45.4,503,3.4,17.87385061537259,0.8834959655618496
303,6860,ORMSTOWN,QC,-74.05,45.1167,46,1.6,15.971452536902286,-0.02306995179155099
304,6863,PIERREVILLE,QC,-72.8333,46.0833,15,2.2,16.500102870276372,1.1514404604556916
305,6875,SABREVOIS,QC,-73.2,45.2167,38,2.5,16.515278173256952,0.2478536721012904
306,6880,ST ANICET,QC,-74.35,45.1333,53,3.9,15.76386408140092,-0.06763698819223248
307,6884,ST BERNARD DE LACOLLE,QC,-73.3833,45.0833,49,2.3,16.43136179542141,0.08212766041682308
308,6889,STE CLOTHILDE CDA,QC,-73.6833,45.1667,56,1.7,16.204535378802806,0.09970703767826301
309,6892,ST COME DE LINIERE,QC,-70.5167,46.05,244,3.1,18.036246116246513,1.6268592987363577
310,6899,ST FERDINAND,QC,-71.5833,46.1,297,3.3,17.319534723993772,1.4353865918581943
311,6905,STE GENEVIEVE,QC,-73.85,45.5,23,2.5,15.995474941061378,0.3845159255402604
312,6906,ST GEORGES,QC,-70.7,46.15,168,2.5,17.883321299254668,1.6796607608428853
313,6911,MONTREAL/ST-HUBERT A,QC,-73.4167,45.5167,27,3.0,16.280985270212184,0.4892824791896059
314,6915,ST HYACINTHE 2,QC,-72.9167,45.5667,33,2.8,16.600395614683634,0.6413453724906322
315,6925,ST LUDGER,QC,-70.6833,45.75,335,3.0,18.025092727207987,1.3054290288877226
316,6926,STE MADELEINE,QC,-73.1333,45.6167,30,2.3,16.440798499950514,0.6436379439510136
317,6927,ST MALO D AUCKLAND,QC,-71.5,45.2,564,3.9,17.66009565819819,0.6002534616609015
318,6935,ST PROSPER,QC,-70.5,46.2167,282,3.4,17.992307149959434,1.788085543520356
319,6940,ST SEBASTIEN,QC,-70.95,45.7667,442,4.0,17.84366708527203,1.2606717705989359
320,6942,ST SEVERIN,QC,-71.05,46.3333,442,5.5,17.594713197903786,1.7744012915046719
321,6957,SHERBROOKE A,QC,-71.6833,45.4333,241,3.5,17.463999638422727,0.7807929838028224
322,6960,SOREL,QC,-73.1167,46.0333,15,2.8,16.327496188013978,1.0447050148731867
323,6966,SUTTON,QC,-72.6833,45.0667,244,2.8,16.907970562019244,0.2143332821945056
324,6970,THETFORD MINES,QC,-71.35,46.1,381,5.8,17.472963414579834,1.4868129159530434
325,6975,VALLEYFIELD,QC,-74.1,45.2833,46,2.3,15.889859305178064,0.12639370122986404
326,6978,VERCHERES,QC,-73.3667,45.7667,21,3.0,16.240560473908765,0.738457158552364
327,6997,ANGERS,QC,-75.55,45.55,91,3.1,14.83803900373631,0.09932157620079315
328,7007,CHARTERIS,QC,-76.4333,45.6833,168,2.8,14.206951891737853,0.06457777123853113
329,7023,LACHUTE,QC,-74.3333,45.65,91,2.5,15.628350571746576,0.43111426674639375
330,7028,LA MACAZA,QC,-74.7667,46.3667,244,3.4,15.137667577989024,1.0340555599277181
331,7033,LUSKVILLE,QC,-76.05,45.5333,69,1.4,14.504972791199682,-0.010141822987990141
332,7035,MANIWAKI UA,QC,-76.0061,46.3018,189,3.7,14.331629182838835,0.7391769186864998
333,7041,MONTEBELLO (SEDBERGH),QC,-74.9333,45.7,197,3.1,15.211915468380836,0.361483120581601
334,7053,STE AGATHE DES MONTS,QC,-74.2833,46.05,395,4.7,15.547958374592634,0.8244980392844867
335,7056,STE ANNE DU LAC,QC,-75.3333,46.85,262,4.0,14.630169131697288,1.3913321643034506
336,7059,ST HIPPOLYTE,QC,-74.0,45.9833,366,4.6,15.7555788147033,0.816943782864911
337,7064,SHEENBORO,QC,-77.25,45.9667,137,2.2,13.584505642712083,0.19407473605052883
338,7071,WRIGHT,QC,-76.05,46.0667,142,3.2,14.364356559816647,0.5043901353927333
339,7075,BAIE-COMEAU A,QC,-68.2,49.1333,22,6.8,18.448044213540186,5.058478584630331
340,7085,LOURDES DE BLANC SABLON A,QC,-57.1833,51.45,37,5.2,23.912489411212096,10.104162651119204
341,7097,CHATEAU RICHER,QC,-71.0333,46.9667,15,5.8,17.400888965846388,2.377566928011995
342,7108,FORET MONTMORENCY,QC,-71.15,47.3167,640,5.4,17.21270812915398,2.6832756820036425
343,7114,GRANDES BERGERONNES,QC,-69.5167,48.25,61,3.3,17.940016482155016,3.9275140340820363
344,7149,NATASHQUAN A,QC,-61.8167,50.1833,11,8.0,21.855483859627054,7.646599951001509
345,7173,STE ROSE DU NORD,QC,-70.5333,48.4,205,6.4,17.25132301995396,3.8422604402526868
346,7177,SEPT-ILES A,QC,-66.2667,50.2167,55,8.4,19.216683889338345,6.526088218670024
347,7195,RIVIERE AU TONNERRE,QC,-64.7833,50.2833,15,4.5,20.071145631038487,6.955154706028982
348,7230,CAP DES ROSIERS,QC,-64.2,48.85,15,6.9,20.99524749910319,5.79153324323768
349,7232,CAPLAN,QC,-65.6833,48.1,23,3.2,20.38318679106956,4.715470111362363
350,7248,GASPE A,QC,-64.4781,48.7769,34,5.9,20.85593090429929,5.651301920249028
351,7252,GRINDSTONE ISLAND,QC,-61.8667,47.3833,60,5.7,23.02929875054479,5.100925893032472
352,7261,LAC HUMQUI,QC,-67.5667,48.2833,236,5.8,19.14630208065784,4.415906609261064
353,7264,LA POCATIERE CDA,QC,-70.0333,47.35,30,5.1,17.917497467271644,2.9632011627512
354,7273,MONT-JOLI A,QC,-68.2167,48.6,52,7.4,18.628454874362962,4.5562730774171545
355,7286,NOUVELLE,QC,-66.3,48.1,7,4.8,20.001159833155274,4.558528198692667
356,7301,RIMOUSKI,QC,-68.5167,48.45,36,4.6,18.495415831965524,4.345598033008107
357,7313,ST CAMILLE,QC,-70.2167,46.4833,396,4.7,18.088712820603085,2.1043623241683953
358,7315,ST CLEMENT,QC,-69.1,47.9167,259,5.7,18.31675132549891,3.71007111167222
359,7322,STE GERMAINE,QC,-70.4667,46.4167,510,5.5,17.948131049345225,1.9845023376234565
360,7325,ST JEAN DE CHERBOURG,QC,-67.1167,48.8833,350,9.1,19.203872504046767,5.083231709000099
361,7326,STE LUCIE,QC,-70.0167,46.7333,373,5.8,18.134863525524572,2.38587791745667
362,7337,STE ROSE DU DEGELIS,QC,-68.6333,47.5667,151,5.4,18.733677276905336,3.491313994124788
363,7346,ILES DE LA MADELEINE A,QC,-61.7833,47.4167,11,1.2,23.06626518785116,5.155209648688747
364,7357,BAGOTVILLE A,QC,-71.0,48.3333,159,4.5,16.97946760951628,3.677953743438618
365,7385,LAC BOUCHETTE,QC,-72.1667,48.2167,358,3.3,16.278681835293746,3.321200862802388
366,7390,LAC STE CROIX,QC,-71.75,48.4167,152,4.7,16.479739155928193,3.5978108026814204
367,7401,NORMANDIN CDA,QC,-72.5333,48.85,137,3.2,15.851778350050044,3.8488977138356315
368,7410,ROBERVAL A,QC,-72.2667,48.5167,179,5.6,16.122340479606144,3.5858890255644726
369,7414,ST AMBROISE,QC,-71.3333,48.5667,122,3.8,16.694413110517512,3.827749452984931
370,7419,ST PRIME,QC,-72.4167,48.6167,122,3.4,15.99683941147927,3.6504271546022258
371,7462,BARRAGE TEMISCAMINGUE,QC,-79.1011,46.7097,181,2.8,12.166449577432108,0.6116695306403618
372,7473,MONT BRUN,QC,-78.7333,48.4167,305,4.2,12.017196687285196,2.3301463594803966
373,7496,AMOS,QC,-78.1333,48.5667,310,4.2,12.368776262825914,2.5693781490772243
374,7530,LA GRANDE RIVIERE A,QC,-77.7,53.6333,195,2.7,11.40209725081259,7.55110484508539
375,7550,NITCHEQUON,QC,-70.9,53.2,536,4.2,15.44560701182247,8.299960359573916
376,7583,LAC BERRY,QC,-78.2833,48.8,305,2.9,12.216949590249524,2.7724424149031415
377,7596,INUKJUAK UA,QC,-78.0833,58.4667,24,3.0,9.988977488368288,12.184706889709847
378,7601,KUUJJUARAPIK A,QC,-77.75,55.2833,12,3.3,10.963379553343792,9.143254450485722
379,7627,KUUJJUAQ A,QC,-68.4167,58.1,40,3.7,15.062915391847254,13.3816017084914
380,7638,SCHEFFERVILLE A,QC,-66.8167,54.8,522,4.9,17.15060312140212,10.642722973708436
381,7645,ACADIA FOREST EXP ST,NB,-66.3633,45.9903,54,4.0,20.757678859211282,2.5880834006331126
382,7648,AROOSTOOK,NB,-67.7156,46.7122,80,5.0,19.622613419942642,2.915060025357727
383,7653,BAS CARAQUET,NB,-64.8667,47.8,11,6.2,21.005823736238465,4.651853828796736
384,7663,BERTRAND,NB,-65.0667,47.75,23,6.0,20.90147083831138,4.553130535964961
385,7681,CHARLO A,NB,-66.3333,47.9833,40,6.3,20.024656104182274,4.442055448008857
386,7686,MIRAMICHI A,NB,-65.4678,47.0095,33,4.8,20.93925168325036,3.765296967036392
387,7698,DOAKTOWN,NB,-66.1403,46.5525,57,10.3,20.688150177613355,3.1668816081319098
388,7707,FREDERICTON A,NB,-66.5279,45.8721,21,3.8,20.695842322706284,2.4355673986902304
389,7715,GAGETOWN 2,NB,-66.15,45.7833,34,4.7,20.97348209091824,2.4523914808738034
390,7731,HAUT SHIPPAGAN,NB,-64.7667,47.75,6,5.9,21.087559840485376,4.632375784571248
391,7749,LITTLE RIVER MINE,NB,-66.0667,47.2833,341,8.8,20.45703721604458,3.862139802217241
392,7766,MONCTON A,NB,-64.6838,46.1053,71,4.4,21.790230230835956,3.143485364303546
393,7781,PENNFIELD,NB,-66.7333,45.1,23,5.7,20.850317762178534,1.6654751578683622
394,7805,SACKVILLE,NB,-64.3833,45.85,46,3.1,22.08356301670653,2.99186183107382
395,7814,SAINT JOHN A,NB,-65.8856,45.3181,109,3.3,21.32172942210499,2.0923818993230565
396,7821,ST LEONARD A,NB,-67.8319,47.1578,242,6.7,19.387549788287743,3.3020657185607187
397,7853,WOODSTOCK,NB,-67.5536,46.1703,153,5.0,19.923144460296516,2.4503054913706883
398,7880,BADDECK,NS,-60.75,46.1,8,4.2,24.277623200008552,4.273588051025234
399,7900,BRIDGEWATER,NS,-64.55,44.4,27,2.7,22.551400289984592,1.6142468085780268
400,7917,CHETICAMP,NS,-60.95,46.65,11,3.8,23.912394653903753,4.70829070687878
401,7926,COLLEGEVILLE,NS,-62.0167,45.4833,76,3.3,23.744543989867303,3.336863255409132
402,7934,DEMING,NS,-61.1778,45.2164,16,2.1,24.392707899410343,3.3478667584073754
403,7942,ECUM SECUM,NS,-62.1833,44.9833,15,2.1,23.849578318579603,2.8341066245898623
404,7953,GREENWOOD A,NS,-64.9167,44.9833,28,3.1,22.08183244528817,2.0477520185861904
405,7972,INGONISH BEACH,NS,-60.4,46.65,8,7.4,24.25294202573579,4.873758057634859
406,7982,KENTVILLE CDA,NS,-64.4833,45.0667,49,3.8,22.33064299672679,2.245163530071908
407,8032,NAPPAN CDA,NS,-64.25,45.7667,20,3.3,22.20214615660833,2.952510648604285
408,8052,PARRSBORO,NS,-64.3333,45.4,24,3.3,22.295057999272316,2.5929897681063143
409,8080,SABLE ISLAND,NS,-60.0094,43.9322,5,0.9,25.705259485464225,2.558199415687226
410,8088,SALMON HOLE,NS,-64.0333,44.9333,84,5.3,22.675906214322463,2.249827933933791
411,8095,SHEARWATER A,NS,-63.5,44.6333,44,2.2,23.143751611246888,2.1285083347995943
412,8122,SYDNEY A,NS,-60.0481,46.1667,62,3.5,24.68599969266512,4.547908489350023
413,8130,TRAFALGAR,NS,-62.6667,45.2833,152,4.6,23.41369120676652,2.9636487927491326
414,8133,TRURO,NS,-63.2667,45.3667,40,2.3,22.994531657643748,2.865301707549471
415,8136,TUSKET,NS,-65.9833,43.8833,9,2.9,21.803607253579266,0.7390764935272756
416,8138,UPPER STEWIACKE,NS,-63.0,45.2167,23,2.1,23.227533862191482,2.8057614051937527
417,8140,WATERVILLE CAMBRIDGE,NS,-64.65,45.05,31,3.5,22.229032603976535,2.1832299349175868
418,8164,YARMOUTH A,NS,-66.0886,43.8308,43,2.2,21.753266688790557,0.6616967255468574
419,8170,ALLISTON,PE,-62.6,46.0667,61,7.0,23.128978936207325,3.695154703131543
420,8177,CHARLOTTETOWN A,PE,-63.1286,46.2886,49,4.5,22.703007279034583,3.745334014783396
421,8179,CHARLOTTETOWN CDA,PE,-63.1333,46.25,23,3.1,22.71596758927946,3.7088202378029633
422,8183,EAST BALTIC,PE,-62.1667,46.4333,61,4.9,23.247299074645955,4.153673757113379
423,8193,MONTICELLO,PE,-62.4667,46.4667,32,4.0,23.04520507377626,4.097032741271308
424,8198,LONG RIVER,PE,-63.55,46.5,18,4.9,22.350518174671695,3.8191632149950627
425,8212,SUMMERSIDE A,PE,-63.8317,46.4389,20,3.9,22.197652168319504,3.6845959413421965
426,8236,BOAT HARBOUR,NL,-54.8428,47.4306,15,5.0,27.244436784751777,7.3432719055429
427,8237,BONAVISTA,NL,-53.1142,48.6672,26,5.0,27.614971456792322,8.995449237262823
428,8242,BUCHANS,NL,-56.8667,48.8167,270,7.8,25.37151188867836,7.890790861218801
429,8247,BURGEO,NL,-57.6167,47.6167,11,3.2,25.503301629128412,6.597500707225498
430,8252,CAPE BROYLE,NL,-52.9333,47.1,6,5.8,28.539548624607665,7.717138353829867
431,8267,COLINET,NL,-53.55,47.2167,27,3.2,28.116150540572814,7.601455119667214
432,8271,COMFORT COVE,NL,-54.8833,49.2667,99,6.0,26.294066602940795,8.920267481638986
433,8274,CORMACK,NL,-57.4,49.3167,154,4.9,24.820435529383964,8.163405045656338
434,8277,CORNER BROOK,NL,-57.95,48.95,5,5.4,24.67471781601549,7.670314249600299
435,8279,COW HEAD,NL,-57.7889,49.9117,15,6.2,24.31154833282076,8.568414912870594
436,8280,DANIELS HARBOUR,NL,-57.5811,50.2364,19,5.6,24.275196665536356,8.917592883317909
437,8283,DEER LAKE A,NL,-57.4,49.2167,22,7.3,24.868387906174352,8.075391192008935
438,8302,GALLANTS,NL,-58.2333,48.7,143,11.7,24.62615250390588,7.362144133067964
439,8345,LETHBRIDGE,NL,-53.9017,48.35,15,4.7,27.32675373010038,8.455403278865548
440,8353,MIDDLE ARM,NL,-56.0833,49.6833,48,14.5,25.39955778468893,8.896623657666789
441,8361,PETTY HARBOUR,NL,-52.7167,47.4667,6,5.9,28.474338160291843,8.106864939483001
442,8366,PLUM POINT,NL,-56.8833,51.0667,6,5.0,24.266777866488194,9.858365396681622
443,8371,PORT AUX BASQUES,NL,-59.1547,47.5739,40,7.2,24.598257854640586,6.07942366355763
444,8386,RATTLING BRK NORRIS ARM,NL,-55.3,49.0667,9,4.1,26.155877500630655,8.611102176608682
445,8397,ST ANTHONY,NL,-55.6,51.3667,12,11.5,24.830079614182484,10.513143541501316
446,8403,ST LAWRENCE,NL,-55.3833,46.9167,48,4.5,27.17979422671576,6.714805284597526
447,8416,SOPS ARM WHITE BAY,NL,-56.8833,49.7667,17,5.0,24.90090147023769,8.71890176481015
448,8419,SPRINGDALE,NL,-56.0833,49.5,23,4.7,25.49020065588056,8.736699349311783
449,8423,STEPHENVILLE A,NL,-58.55,48.5333,25,7.0,24.517097913492673,7.117358910371174
450,8455,WOODY POINT,NL,-57.9167,49.5,23,10.1,24.433605951924587,8.166239327159682
451,8472,BATTLE HARBOUR LOR,NL,-55.6,52.25,9,10.5,24.383441139208454,11.27986689754487
452,8479,CARTWRIGHT,NL,-57.035,53.7083,14,11.4,22.883799444538962,12.126358983270919
453,8484,CHURCHILL FALLS A,NL,-64.1,53.55,440,8.1,19.13577139970266,10.11636629865344
454,8486,GOOSE A,NL,-60.4167,53.3167,49,6.7,21.25454186850438,10.842940456164209
455,8489,HOPEDALE (AUT),NL,-60.2167,55.45,12,9.3,20.37992732710111,12.800428563828865
456,8498,NAIN A,NL,-61.6833,56.55,6,9.5,19.12294867359371,13.419876797675242
457,8518,WABUSH LAKE A,NL,-66.8742,52.9272,551,7.0,17.832949980002578,8.894474268549919
458,8767,VICTORIA INT'L A,BC,-123.426,48.6472,20,1.4,-17.144251143372646,4.066814708077395
459,8769,VANCOUVER INT'L A,BC,-123.182,49.195,4,1.2,-16.812356613135417,4.531847882450481
460,8774,EDMONTON INT'L A,AB,-113.583,53.3167,723,1.7,-9.888532509729613,6.872797573742963
461,8775,CALGARY INT'L A,AB,-114.02,51.1139,1084,0.9,-10.625797002736029,4.778503714622416
462,8784,REGINA INT'L A,SK,-104.667,50.4333,578,1.5,-4.882522538616095,3.1741915710209807
463,8785,SASKATOON DIEFENBAKER INT'L A,SK,-106.71700000000001,52.1667,504,1.4,-5.965341609252919,5.039762809078846
464,8786,WINNIPEG RICHARDSON INT'L A,MB,-97.2333,49.9167,239,2.6,-0.15035553299554535,2.4169256900823712
465,8789,OTTAWA MACDONALD-CARTIER INT'L A,ON,-75.6692,45.3225,114,3.5,14.818651720335906,-0.14229068458931268
466,8792,LONDON INT'L AIRPORT,ON,-81.1511,43.0331,278,1.8,11.534368202439223,-3.290371679059054
467,8795,TORONTO LESTER B. PEARSON INT'L A,ON,-79.6306,43.6772,173,1.4,12.480315141272046,-2.4275243009702034
468,8799,L'ASSOMPTION,QC,-73.4347,45.8094,21,2.9,16.182646599358296,0.7652575197208127
469,8807,MONTREAL/MIRABEL INT'L A,QC,-74.0333,45.6667,83,3.4,15.82450983689447,0.5070676872066261
470,8816,VAL-D'OR A,QC,-77.7867,48.0564,337,4.2,12.715646487269279,2.1295758090215102
471,8821,HALIFAX STANFIELD INT'L A,NS,-63.5,44.88,145,2.5,23.043207937173968,2.353824406162802
472,8826,O'LEARY,PE,-64.2617,46.7003,38,6.0,21.821103653985478,3.805146627159658
473,8832,GANDER INT'L A,NL,-54.5769,48.9464,151,5.9,26.6323194328237,8.743890975982405
474,8842,ST JOHN'S A,NL,-52.7428,47.6222,140,5.5,28.377457088340115,8.230534649080468
475,8844,ST JOHN'S WEST CDA,NL,-52.7833,47.5167,114,4.9,28.409254978313303,8.126197355843289
476,12341,FREDERICTON CDA,NB,-66.6167,45.9167,40,3.1,20.62178160144984,2.4538374466501836
